{
  "BALAGTAS (BIGAA) (BULACAN), BULACAN, Philippines": {
    "lat": 14.8019865,
    "lon": 120.9021698,
    "display_name": "Balagtas River, San Juan, Balagtas, Bulacan, Central Luzon, 3016, Philippines",
    "type": "river",
    "class": "waterway"
  },
  "BOCAUE (BULACAN), BULACAN, Philippines": {
    "lat": 14.7927905,
    "lon": 120.9318018,
    "display_name": "Iteen Philippines, MacArthur Highway, Biñang 2nd, Bocaue, Bulacan, Central Luzon, 3018, Philippines",
    "type": "studio",
    "class": "amenity"
  },
  "CITY OF MALABON (METROPOLITAN MANILA), MALABON CITY, Philippines": null,
  "CITY OF GENERAL TRIAS (CAVITE), CAVITE, Philippines": {
    "lat": 14.3748334,
    "lon": 120.9115264,
    "display_name": "City of General Trias Hall of Justice, Damayan Street, Navarro, General Trias, Cavite, Calabarzon, 4107, Philippines",
    "type": "yes",
    "class": "building"
  },
  "QUEZON CITY (METROPOLITAN MANILA), QUEZON CITY, Philippines": null,
  "CITY OF TARLAC (CAPITAL) (TARLAC), TARLAC, Philippines": null,
  "GUIGUINTO (BULACAN), BULACAN, Philippines": {
    "lat": 14.8344839,
    "lon": 120.8648224,
    "display_name": "Korea Philippines IT Training Center, MacArthur Highway, Masagana Homes, St. Peter Village, Tabang, Guiguinto, Bulacan, Central Luzon, 3015, Philippines",
    "type": "government",
    "class": "office"
  },
  "PLARIDEL (BULACAN), BULACAN, Philippines": {
    "lat": 14.8574478,
    "lon": 120.8151641,
    "display_name": "Girl Scouts of the Philippines, Plaridel-Malolos Road, Bulacan Provincial Capitol Complex, Guinhawa, Sumapang Matanda, Malolos, Bulacan, Central Luzon, 3000, Philippines",
    "type": "public",
    "class": "building"
  },
  "SANTA MARIA (BULACAN), BULACAN, Philippines": {
    "lat": 14.8696175,
    "lon": 120.9989376,
    "display_name": "Polytechnic University of the Philippines, Norzagaray-Santa Maria Road, Pulong Buhangin, Pulong Yantok, Santa Maria, Bulacan, Central Luzon, 3022, Philippines",
    "type": "university",
    "class": "amenity"
  },
  "CITY OF MEYCAUAYAN (BULACAN), BULACAN, Philippines": {
    "lat": 14.754578,
    "lon": 120.9562387,
    "display_name": "SM City Marilao, MacArthur Highway, Rosas Centro, Ibayo, Marilao, Bulacan, Central Luzon, 3019, Philippines",
    "type": "mall",
    "class": "shop"
  },
  "CITY OF BALIUAG (BULACAN), BULACAN, Philippines": {
    "lat": 14.9595091,
    "lon": 120.8996101,
    "display_name": "Pamahalaang Lungsod ng Baliwag, Santo Cristo, Baliwag, Bulacan, Central Luzon, Philippines",
    "type": "commercial",
    "class": "landuse"
  },
  "SAN MIGUEL (BULACAN), BULACAN, Philippines": {
    "lat": 15.1675157,
    "lon": 121.04161,
    "display_name": "Iglesia Ni Cristo, Lokal ng Tartaro, San Miguel, Bulacan, Camias-Sibul Road, Pulang Lupa, Tartaro, San Miguel, Bulacan, Central Luzon, 3011, Philippines",
    "type": "place_of_worship",
    "class": "amenity"
  },
  "CITY OF SAN JOSE DEL MONTE (BULACAN), BULACAN, Philippines": {
    "lat": 14.8312558,
    "lon": 121.0842872,
    "display_name": "Philippines Street, Benjamin 3 Community Housing, Santo Cristo, San Jose del Monte, Bulacan, Central Luzon, 3024, Philippines",
    "type": "residential",
    "class": "highway"
  },
  "PANDI (BULACAN), BULACAN, Philippines": {
    "lat": 14.8654061,
    "lon": 120.9572464,
    "display_name": "Pandi, Bulacan, Central Luzon, Philippines",
    "type": "administrative",
    "class": "boundary"
  },
  "CITY OF SANTA ROSA (LAGUNA), LAGUNA, Philippines": {
    "lat": 14.3135306,
    "lon": 121.1066441,
    "display_name": "Polytechnic University of the Philippines - Santa Rosa, Arcillas Boulevard, Kanluran, Santa Rosa, Laguna, Calabarzon, 4026, Philippines",
    "type": "university",
    "class": "amenity"
  },
  "CITY OF MARIKINA (METROPOLITAN MANILA), MARIKINA CITY, Philippines": null,
  "CITY OF DASMARIÑAS (CAVITE), CAVITE, Philippines": {
    "lat": 14.285149,
    "lon": 120.9895932,
    "display_name": "Saffron Philippines, Paliparan 1, Paliparan, Dasmariñas, Cavite, Calabarzon, 4114, Philippines",
    "type": "industrial",
    "class": "landuse"
  },
  "CITY OF PASIG (METROPOLITAN MANILA), PASIG CITY, Philippines": null,
  "CALOOCAN CITY (METROPOLITAN MANILA), CALOOCAN CITY, Philippines": null,
  "GENERAL LUNA (QUEZON), QUEZON, Philippines": {
    "lat": 13.690927,
    "lon": 122.1714362,
    "display_name": "PUP Genluna Campus, Vercelos Street, San Jose, San Isidro Ibaba, General Luna, Quezon, Calabarzon, 4310, Philippines",
    "type": "college",
    "class": "amenity"
  },
  "CALUMPIT (BULACAN), BULACAN, Philippines": {
    "lat": 14.9183583,
    "lon": 120.7670558,
    "display_name": "TESDA Provincial Training Center Calumpit, Arce Street, Sapang Bayan, Poblacion, Calumpit, Bulacan, Central Luzon, 3003, Philippines",
    "type": "school",
    "class": "amenity"
  },
  "HAGONOY (BULACAN), BULACAN, Philippines": {
    "lat": 14.8658846,
    "lon": 120.7665754,
    "display_name": "Bulacan State University - Hagonoy Campus, Iba-Longos Road, Iba-Ibayo, Hagonoy, Bulacan, Central Luzon, 3002, Philippines",
    "type": "university",
    "class": "amenity"
  },
  "CITY OF MALOLOS (CAPITAL) (BULACAN), BULACAN, Philippines": null,
  "BULACAN (BULACAN), BULACAN, Philippines": {
    "lat": 14.8696175,
    "lon": 120.9989376,
    "display_name": "Polytechnic University of the Philippines, Norzagaray-Santa Maria Road, Pulong Buhangin, Pulong Yantok, Santa Maria, Bulacan, Central Luzon, 3022, Philippines",
    "type": "university",
    "class": "amenity"
  },
  "BUSTOS (BULACAN), BULACAN, Philippines": {
    "lat": 14.8563067,
    "lon": 120.8609065,
    "display_name": "emelita cordova (friday) malamig bustos bulacan, Juanita Santos Street, Masagana Homes - Phase 1, Santa Rita, Guiguinto, Bulacan, Central Luzon, 3015, Philippines",
    "type": "variety_store",
    "class": "shop"
  },
  "PAOMBONG (BULACAN), BULACAN, Philippines": {
    "lat": 14.8363954,
    "lon": 120.7874997,
    "display_name": "Paombong, Bulacan, Central Luzon, 3001, Philippines",
    "type": "administrative",
    "class": "boundary"
  },
  "CITY OF SAN JUAN (METROPOLITAN MANILA), SAN JUAN CITY, Philippines": null
}